poiId,name,type,area,lat,lng,pricePerPerson,stayMinutes,timePreference,tags,suitableFor,riskTags,waitRisk,recommendReason,mockAddress
start_in77,湖滨银泰 in77,起点,湖滨,30.2572,120.1648,0,5,下午,"出发点;商圈;地铁可达","情侣;朋友;亲子","人流多",低,作为湖滨核心商圈，适合作为西湖半日路线的集合与出发点。,杭州市上城区延安路湖滨商圈
scenic_broken_bridge,断桥残雪,景点,西湖,30.2614,120.1536,0,45,下午,"西湖经典;拍照;步行友好","情侣;朋友;独行","游客较多",中,离湖滨出发点较近，是西湖经典景观点，适合第一站快速进入游览状态。,杭州市西湖区北山街
cafe_lakeside_baita,湖畔白塔咖啡,咖啡,西湖,30.2595,120.1568,38,35,下午,"休息;湖景;轻松","情侣;朋友;独行","临窗座等待",低,安排在景点之后作为中途休息点，能降低路线疲劳感。,杭州市西湖周边
dinner_xinbailu_hubin,新白鹿餐厅湖滨店,餐厅,湖滨,30.2565,120.1642,82,45,傍晚,"杭帮菜;晚餐;预算适中","情侣;朋友;家庭","晚高峰排队",低-中,回到湖滨商圈收尾，方便晚餐后继续逛街或返程。,杭州市湖滨商圈
dinner_zhiweiguan_hubin,知味观湖滨店,餐厅,湖滨,30.2559,120.1637,58,40,傍晚,"平价;杭州小吃;晚餐","朋友;家庭;独行","热门时段人多",低,预算降低时可替换为人均更低的杭州风味餐厅。,杭州市湖滨商圈
dinner_waipojia_hubin,外婆家湖滨店,餐厅,湖滨,30.2576,120.1653,75,45,傍晚,"杭帮菜;低等待;商圈","情侣;朋友;家庭","热门时段可能等位",低,餐厅排队风险升高时可作为低等待备选。,杭州市湖滨商圈
rest_lakeside_light,湖滨轻休息点,轻休息,湖滨,30.2582,120.1602,22,25,下午,"轻休息;低消费;少排队","情侣;朋友;亲子","体验弱于咖啡馆",低,用户不要咖啡时，可保留中途休息节奏并降低消费。,杭州市湖滨步行街周边
photo_beishan_view,北山街湖景拍照点,拍照点,西湖,30.2632,120.1518,0,40,下午,"拍照;湖景;更出片","情侣;朋友;独行","天气影响",中,用户希望更适合拍照时，可替换普通经典景点为更强调出片的湖景点。,杭州市西湖区北山街
